{
  "timestamp": 1763524489,
  "count": 124,
  "events": [
    {
      "url": "https://www.hackwestern.com/",
      "title": "Hack Western",
      "name": "Hack Western",
      "dates": "Nov 21st - 23rd",
      "start_date": "2025-11-21",
      "end_date": "2025-11-23",
      "city": "London",
      "state": "Ontario",
      "location": "London, Ontario",
      "image": "https://s3.amazonaws.com/assets.mlh.io/events/splashes/000/213/370/thumb/MLH_Splash.png?1750882597"
    },
    {
      "url": "https://www.wellesleyhacks.org/",
      "title": "WHACK 2025",
      "name": "WHACK 2025",
      "dates": "Nov 21st - 23rd",
      "start_date": "2025-11-21",
      "end_date": "2025-11-23",
      "city": "Wellesley",
      "state": "MA",
      "location": "Wellesley, MA",
      "image": "https://s3.amazonaws.com/assets.mlh.io/events/splashes/000/213/491/thumb/3c5faff0a416539488229e5133b98004.PNG?1761240273"
    },
    {
      "url": "https://www.polihacks.dev/",
      "title": "Polihacks- CIS by Wolfram",
      "name": "Polihacks- CIS by Wolfram",
      "dates": "Nov 22nd - 23rd",
      "start_date": "2025-11-22",
      "end_date": "2025-11-23",
      "city": "Ciudad de México",
      "state": "Mexico",
      "location": "Ciudad de México, Mexico",
      "image": "https://s3.amazonaws.com/assets.mlh.io/events/splashes/000/213/499/thumb/Event_Backsplash_Polihacks_%E2%80%93_CIS_by_Wolfram.png?1762357360"
    },
    {
      "url": "https://hacksheffield.uk/",
      "title": "HackSheffield 10",
      "name": "HackSheffield 10",
      "dates": "Nov 29th - 30th",
      "start_date": "2025-11-29",
      "end_date": "2025-11-30",
      "city": "Sheffield",
      "state": "South Yorkshire",
      "location": "Sheffield, South Yorkshire",
      "image": "https://s3.amazonaws.com/assets.mlh.io/events/splashes/000/213/393/thumb/Diamond.jpeg?1751900735"
    },
    {
      "url": "https://www.hacksussex.com/Events/gamejam",
      "title": "HackSussex GameJam 2025",
      "name": "HackSussex GameJam 2025",
      "dates": "Dec 6th - 7th",
      "start_date": "2025-12-06",
      "end_date": "2025-12-07",
      "city": "Brighton",
      "state": "Sussex",
      "location": "Brighton, Sussex",
      "image": "https://s3.amazonaws.com/assets.mlh.io/events/splashes/000/213/535/thumb/HSGJ25300.png?1763378619"
    },
    {
      "url": "https://events.mlh.io/events/12943",
      "title": "Global Hack Week: AI/ML",
      "name": "Global Hack Week: AI/ML",
      "dates": "Dec 12th - 18th",
      "start_date": "2025-12-12",
      "end_date": "2025-12-18",
      "city": "Everywhere",
      "state": "Online",
      "location": "Everywhere, Online",
      "image": "https://s3.amazonaws.com/assets.mlh.io/events/splashes/000/213/480/thumb/hero.jpg?1758624453"
    },
    {
      "url": "https://pechacks.org/",
      "title": "PEC Hacks 3.0",
      "name": "PEC Hacks 3.0",
      "dates": "Dec 27th - 28th",
      "start_date": "2025-12-27",
      "end_date": "2025-12-28",
      "city": "Chennai",
      "state": "Tamil Nadu",
      "location": "Chennai, Tamil Nadu",
      "image": "https://s3.amazonaws.com/assets.mlh.io/events/splashes/000/213/494/thumb/MLH_EVENT_SPLASH.png?1761732324"
    },
    {
      "url": "https://events.mlh.io/events/13143",
      "title": "Hacks for Hackers",
      "name": "Hacks for Hackers",
      "dates": "Jan 2nd - 4th",
      "start_date": "2026-01-02",
      "end_date": "2026-01-04",
      "city": "Everywhere",
      "state": "Worldwide",
      "location": "Everywhere, Worldwide",
      "image": "https://s3.amazonaws.com/assets.mlh.io/events/splashes/000/213/484/thumb/social-instagram.jpg?1761566447"
    },
    {
      "url": "https://events.mlh.io/events/13277",
      "title": "Global Hack Week: Beginners",
      "name": "Global Hack Week: Beginners",
      "dates": "Jan 9th - 15th",
      "start_date": "2026-01-09",
      "end_date": "2026-01-15",
      "city": "Everywhere",
      "state": "Online",
      "location": "Everywhere, Online",
      "image": "https://s3.amazonaws.com/assets.mlh.io/events/splashes/000/213/485/thumb/IG.jpg?1760525764"
    },
    {
      "url": "https://www.deltahacks.com/",
      "title": "DeltaHacks",
      "name": "DeltaHacks",
      "dates": "Jan 10th - 11th",
      "start_date": "2026-01-10",
      "end_date": "2026-01-11",
      "city": "Hamilton",
      "state": "Ontario",
      "location": "Hamilton, Ontario",
      "image": "https://s3.amazonaws.com/assets.mlh.io/events/splashes/000/213/355/thumb/Copy_of_Backsplash.png?1750432939"
    },
    {
      "url": "https://uofthacks.com/",
      "title": "UofTHacks",
      "name": "UofTHacks",
      "dates": "Jan 16th - 18th",
      "start_date": "2026-01-16",
      "end_date": "2026-01-18",
      "city": "Toronto",
      "state": "Ontario",
      "location": "Toronto, Ontario",
      "image": "https://s3.amazonaws.com/assets.mlh.io/events/splashes/000/213/498/thumb/UofTHacks_13_backsplash_%281%29.png?1762272138"
    },
    {
      "url": "https://hackbi.org/",
      "title": "Hack BI",
      "name": "Hack BI",
      "dates": "Jan 17th - 18th",
      "start_date": "2026-01-17",
      "end_date": "2026-01-18",
      "city": "Alexandria",
      "state": "Virginia",
      "location": "Alexandria, Virginia",
      "image": "https://s3.amazonaws.com/assets.mlh.io/events/splashes/000/213/377/thumb/IMG_1718_%281%29.JPG?1751977469"
    },
    {
      "url": "https://mchacks.ca/",
      "title": "McHacks",
      "name": "McHacks",
      "dates": "Jan 17th - 18th",
      "start_date": "2026-01-17",
      "end_date": "2026-01-18",
      "city": "Montreal",
      "state": "Quebec",
      "location": "Montreal, Quebec",
      "image": "https://s3.amazonaws.com/assets.mlh.io/events/splashes/000/213/364/thumb/mchacks-backsplash.png?1753700512"
    },
    {
      "url": "https://nwhacks.io/",
      "title": "nwHacks",
      "name": "nwHacks",
      "dates": "Jan 17th - 18th",
      "start_date": "2026-01-17",
      "end_date": "2026-01-18",
      "city": "Vancouver",
      "state": "Canada",
      "location": "Vancouver, Canada",
      "image": "https://s3.amazonaws.com/assets.mlh.io/events/splashes/000/213/374/thumb/nwHacks2026_Backsplash.png?1750964098"
    },
    {
      "url": "https://hoyahacks.georgetown.domains/",
      "title": "Hoya Hacks",
      "name": "Hoya Hacks",
      "dates": "Jan 23rd - 25th",
      "start_date": "2026-01-23",
      "end_date": "2026-01-25",
      "city": "Washington",
      "state": "District of Columbia",
      "location": "Washington, District of Columbia",
      "image": "https://s3.amazonaws.com/assets.mlh.io/events/splashes/000/213/351/thumb/Screen_Shot_2025-06-18_at_10.49.45_AM.png?1750258394"
    },
    {
      "url": "https://xi.swamphacks.com/",
      "title": "SwampHacks",
      "name": "SwampHacks",
      "dates": "Jan 23rd - 25th",
      "start_date": "2026-01-23",
      "end_date": "2026-01-25",
      "city": "Gainesville",
      "state": "Florida",
      "location": "Gainesville, Florida",
      "image": "https://s3.amazonaws.com/assets.mlh.io/events/splashes/000/213/497/thumb/mlh_large_center.png?1762203516"
    },
    {
      "url": "https://www.conuhacks.io/",
      "title": "ConUHacks X",
      "name": "ConUHacks X",
      "dates": "Jan 24th - 25th",
      "start_date": "2026-01-24",
      "end_date": "2026-01-25",
      "city": "Montreal",
      "state": "Quebec",
      "location": "Montreal, Quebec",
      "image": "https://s3.amazonaws.com/assets.mlh.io/events/splashes/000/213/388/thumb/Hack_Concordia_%2810%29.png?1763501613"
    },
    {
      "url": "https://www.qwerhacks.com/",
      "title": "QWER Hacks",
      "name": "QWER Hacks",
      "dates": "Jan 24th - 25th",
      "start_date": "2026-01-24",
      "end_date": "2026-01-25",
      "city": "Los Angeles",
      "state": "California",
      "location": "Los Angeles, California",
      "image": "https://s3.amazonaws.com/assets.mlh.io/events/splashes/000/213/363/thumb/Screen_Shot_2025-06-24_at_7.27.06_AM.png?1750764595"
    },
    {
      "url": "https://ellehacks.com/",
      "title": "ElleHacks",
      "name": "ElleHacks",
      "dates": "Jan 30th - Feb 1st",
      "start_date": "2026-01-30",
      "end_date": "2026-02-01",
      "city": "Toronto",
      "state": "Ontario",
      "location": "Toronto, Ontario",
      "image": "https://s3.amazonaws.com/assets.mlh.io/events/splashes/000/213/380/thumb/Event_Backsplash_-_300x300px_-_ElleHacks.png?1751285094"
    },
    {
      "url": "https://main--hackviolet.netlify.app/",
      "title": "HackViolet",
      "name": "HackViolet",
      "dates": "Jan 31st - Feb 1st",
      "start_date": "2026-01-31",
      "end_date": "2026-02-01",
      "city": "Blacksburg",
      "state": "Virginia",
      "location": "Blacksburg, Virginia",
      "image": "https://s3.amazonaws.com/assets.mlh.io/events/splashes/000/213/346/thumb/Hackviolet_MLH_backsplash__2x.png?1750765877"
    },
    {
      "url": "https://hackathon.utra.ca/",
      "title": "UTRA Hacks 2026",
      "name": "UTRA Hacks 2026",
      "dates": "Jan 31st - Feb 1st",
      "start_date": "2026-01-31",
      "end_date": "2026-02-01",
      "city": "Toronto",
      "state": "Ontario",
      "location": "Toronto, Ontario",
      "image": "https://s3.amazonaws.com/assets.mlh.io/events/splashes/000/213/400/thumb/image_%289%29.png?1751900629"
    },
    {
      "url": "https://qhacks.io/",
      "title": "QHacks",
      "name": "QHacks",
      "dates": "Feb 6th - 8th",
      "start_date": "2026-02-06",
      "end_date": "2026-02-08",
      "city": "Kingston",
      "state": "Ontario",
      "location": "Kingston, Ontario",
      "image": "https://s3.amazonaws.com/assets.mlh.io/events/splashes/000/213/369/thumb/Screen_Shot_2025-06-25_at_3.40.50_PM.png?1750880873"
    },
    {
      "url": "https://11.ugahacks.com",
      "title": "UGAHacks 11",
      "name": "UGAHacks 11",
      "dates": "Feb 6th - 8th",
      "start_date": "2026-02-06",
      "end_date": "2026-02-08",
      "city": "Athens",
      "state": "Georgia",
      "location": "Athens, Georgia",
      "image": "https://s3.amazonaws.com/assets.mlh.io/events/splashes/000/213/471/thumb/Event_Backsplash.png?1758137736"
    },
    {
      "url": "https://26-devfest.netlify.app/",
      "title": "DevFest",
      "name": "DevFest",
      "dates": "Feb 7th - 8th",
      "start_date": "2026-02-07",
      "end_date": "2026-02-08",
      "city": "New York",
      "state": "New York",
      "location": "New York, New York",
      "image": "https://s3.amazonaws.com/assets.mlh.io/events/splashes/000/213/359/thumb/Backsplash_%281%29.png?1750447421"
    },
    {
      "url": "https://events.mlh.io/events/13382",
      "title": "Global Hack Week: Data",
      "name": "Global Hack Week: Data",
      "dates": "Feb 13th - 19th",
      "start_date": "2026-02-13",
      "end_date": "2026-02-19",
      "city": "Everywhere",
      "state": "Online",
      "location": "Everywhere, Online",
      "image": "https://s3.amazonaws.com/assets.mlh.io/events/splashes/000/213/533/thumb/hero.jpg?1763119787"
    },
    {
      "url": "https://sfhacks.io",
      "title": "SFHacks 2026",
      "name": "SFHacks 2026",
      "dates": "Feb 13th - 15th",
      "start_date": "2026-02-13",
      "end_date": "2026-02-15",
      "city": "San Francisco",
      "state": "California",
      "location": "San Francisco, California",
      "image": "https://s3.amazonaws.com/assets.mlh.io/events/splashes/000/213/381/thumb/MLH_Banner__%281%29.png?1751462433"
    },
    {
      "url": "https://hackncstate.org/",
      "title": "Hack_NCState",
      "name": "Hack_NCState",
      "dates": "Feb 14th - 15th",
      "start_date": "2026-02-14",
      "end_date": "2026-02-15",
      "city": "Raleigh",
      "state": "North Carolina",
      "location": "Raleigh, North Carolina",
      "image": "https://s3.amazonaws.com/assets.mlh.io/events/splashes/000/213/354/thumb/Hack_NCState_Logo_300x300.png?1750424780"
    },
    {
      "url": "https://hacklytics.io/",
      "title": "Hacklytics",
      "name": "Hacklytics",
      "dates": "Feb 20th - 22nd",
      "start_date": "2026-02-20",
      "end_date": "2026-02-22",
      "city": "Atlanta",
      "state": "Georgia",
      "location": "Atlanta, Georgia",
      "image": "https://s3.amazonaws.com/assets.mlh.io/events/splashes/000/213/379/thumb/backsplash_%282%29.png?1751034157"
    },
    {
      "url": "https://wsu-acm.github.io/crimsoncode/",
      "title": "CrimsonCode Hackathon",
      "name": "CrimsonCode Hackathon",
      "dates": "Feb 21st - 22nd",
      "start_date": "2026-02-21",
      "end_date": "2026-02-22",
      "city": "Pullman",
      "state": "Washington",
      "location": "Pullman, Washington",
      "image": "https://s3.amazonaws.com/assets.mlh.io/events/splashes/000/213/532/thumb/cch_mlh_300x300.png?1762379457"
    },
    {
      "url": "https://ruhackhers.org",
      "title": "HackHERS",
      "name": "HackHERS",
      "dates": "Feb 21st - 22nd",
      "start_date": "2026-02-21",
      "end_date": "2026-02-22",
      "city": "New Brunswick",
      "state": "New Jersey",
      "location": "New Brunswick, New Jersey",
      "image": "https://s3.amazonaws.com/assets.mlh.io/events/splashes/000/213/356/thumb/Backsplash_%285%29.png?1750441264"
    },
    {
      "url": "https://hackaturi.com/",
      "title": "Hack@URI ",
      "name": "Hack@URI",
      "dates": "Feb 21st - 22nd",
      "start_date": "2026-02-21",
      "end_date": "2026-02-22",
      "city": "Kingston",
      "state": "Rhode Island",
      "location": "Kingston, Rhode Island",
      "image": "https://s3.amazonaws.com/assets.mlh.io/events/splashes/000/213/496/thumb/hackaturieventbanner.png?1761943952"
    },
    {
      "url": "https://pearlhacks.com/",
      "title": "Pearl Hacks",
      "name": "Pearl Hacks",
      "dates": "Feb 21st - 22nd",
      "start_date": "2026-02-21",
      "end_date": "2026-02-22",
      "city": "Chapel Hill",
      "state": "North Carolina",
      "location": "Chapel Hill, North Carolina",
      "image": "https://s3.amazonaws.com/assets.mlh.io/events/splashes/000/213/395/thumb/Pearl_Hacks_Backsplash.png?1751895453"
    },
    {
      "url": "https://www.henhackshackathon.com/",
      "title": "HenHacks",
      "name": "HenHacks",
      "dates": "Feb 28th - Mar 1st",
      "start_date": "2026-02-28",
      "end_date": "2026-03-01",
      "city": "Newark",
      "state": "Delaware",
      "location": "Newark, Delaware",
      "image": "https://s3.amazonaws.com/assets.mlh.io/events/splashes/000/213/365/thumb/backlash_%281%29.png?1750776953"
    },
    {
      "url": "https://wichacks.io",
      "title": "WiCHacks",
      "name": "WiCHacks",
      "dates": "Feb 28th - Mar 1st",
      "start_date": "2026-02-28",
      "end_date": "2026-03-01",
      "city": "Rochester",
      "state": "New York",
      "location": "Rochester, New York",
      "image": "https://s3.amazonaws.com/assets.mlh.io/events/splashes/000/213/382/thumb/wichacks2026_backsplash_mlh.png?1751463035"
    },
    {
      "url": "https://cmd-f.nwplus.io/",
      "title": "cmd-f 2026",
      "name": "cmd-f 2026",
      "dates": "Mar 7th - 8th",
      "start_date": "2026-03-07",
      "end_date": "2026-03-08",
      "city": "Vancouver",
      "state": "Canada",
      "location": "Vancouver, Canada",
      "image": "https://s3.amazonaws.com/assets.mlh.io/events/splashes/000/213/367/thumb/Backsplash_cmd-f.png?1750787919"
    },
    {
      "url": "https://khe.io/",
      "title": "Kent Hack Enough",
      "name": "Kent Hack Enough",
      "dates": "Mar 28th - 29th",
      "start_date": "2026-03-28",
      "end_date": "2026-03-29",
      "city": "Kent",
      "state": "Ohio",
      "location": "Kent, Ohio",
      "image": "https://s3.amazonaws.com/assets.mlh.io/events/splashes/000/213/385/thumb/300xBackground.png?1751488138"
    },
    {
      "url": "https://revolutionuc.com/",
      "title": "RevolutionUC",
      "name": "RevolutionUC",
      "dates": "Mar 28th - 29th",
      "start_date": "2026-03-28",
      "end_date": "2026-03-29",
      "city": "Cincinnati",
      "state": "Ohio",
      "location": "Cincinnati, Ohio",
      "image": "https://s3.amazonaws.com/assets.mlh.io/events/splashes/000/213/396/thumb/Unknown.png?1751895644"
    },
    {
      "url": "https://www.hackbyte.in/",
      "title": "HackByte 4.0",
      "name": "HackByte 4.0",
      "dates": "Apr 3rd - 5th",
      "start_date": "2026-04-03",
      "end_date": "2026-04-05",
      "city": "Jabalpur",
      "state": "Madhya Pradesh",
      "location": "Jabalpur, Madhya Pradesh",
      "image": "https://s3.amazonaws.com/assets.mlh.io/events/splashes/000/213/312/thumb/hb4_topaligned_sqr.png?1748952558"
    },
    {
      "url": "https://diamondhacks.acmucsd.com/",
      "title": "DiamondHacks",
      "name": "DiamondHacks",
      "dates": "Apr 4th - 5th",
      "start_date": "2026-04-04",
      "end_date": "2026-04-05",
      "city": "San Diego",
      "state": "California",
      "location": "San Diego, California",
      "image": "https://s3.amazonaws.com/assets.mlh.io/events/splashes/000/213/348/thumb/Screen_Shot_2025-06-16_at_12.17.23_PM.png?1750090760"
    },
    {
      "url": "https://bit.camp/",
      "title": "Bitcamp",
      "name": "Bitcamp",
      "dates": "Apr 10th - 12th",
      "start_date": "2026-04-10",
      "end_date": "2026-04-12",
      "city": "College Park",
      "state": "Maryland",
      "location": "College Park, Maryland",
      "image": "https://s3.amazonaws.com/assets.mlh.io/events/splashes/000/213/383/thumb/Bitcamp_Logo.png?1751463705"
    },
    {
      "url": "https://www.wehackutd.com",
      "title": "WEHack",
      "name": "WEHack",
      "dates": "Apr 11th - 12th",
      "start_date": "2026-04-11",
      "end_date": "2026-04-12",
      "city": "Richardson",
      "state": "Texas",
      "location": "Richardson, Texas",
      "image": "https://s3.amazonaws.com/assets.mlh.io/events/splashes/000/213/360/thumb/logo__7_.png?1750453101"
    },
    {
      "url": "https://events.mlh.io/events/12490-global-hack-week-season-launch",
      "title": "Global Hack Week: Season Launch",
      "name": "Global Hack Week: Season Launch",
      "dates": "Jul 4th - 10th",
      "start_date": "2025-07-04",
      "end_date": "2025-07-10",
      "city": "Everywhere",
      "state": "Online",
      "location": "Everywhere, Online",
      "image": "https://s3.amazonaws.com/assets.mlh.io/events/splashes/000/213/307/thumb/IG.jpg?1744899118"
    },
    {
      "url": "https://hackthe6ix.com/",
      "title": "Hack the 6ix",
      "name": "Hack the 6ix",
      "dates": "Jul 18th - 20th",
      "start_date": "2025-07-18",
      "end_date": "2025-07-20",
      "city": "Toronto",
      "state": "Canada",
      "location": "Toronto, Canada",
      "image": "https://s3.amazonaws.com/assets.mlh.io/events/splashes/000/213/292/thumb/Frame_4.png?1750166595"
    },
    {
      "url": "https://events.mlh.io/events/12536",
      "title": "Data Hackfest",
      "name": "Data Hackfest",
      "dates": "Jul 25th - 27th",
      "start_date": "2025-07-25",
      "end_date": "2025-07-27",
      "city": "Everywhere",
      "state": "Worldwide",
      "location": "Everywhere, Worldwide",
      "image": "https://s3.amazonaws.com/assets.mlh.io/events/splashes/000/213/304/thumb/devpost-thumbnail.jpg?1744304276"
    },
    {
      "url": "https://terrahacks.ca/",
      "title": "TerraHacks",
      "name": "TerraHacks",
      "dates": "Aug 1st - 3rd",
      "start_date": "2025-08-01",
      "end_date": "2025-08-03",
      "city": "Toronto",
      "state": "Ontario",
      "location": "Toronto, Ontario",
      "image": "https://s3.amazonaws.com/assets.mlh.io/events/splashes/000/213/401/thumb/MLH_300x300_logo.png?1751977710"
    },
    {
      "url": "https://events.mlh.io/events/12607",
      "title": "Global Hack Week: Beginners Week",
      "name": "Global Hack Week: Beginners Week",
      "dates": "Aug 8th - 14th",
      "start_date": "2025-08-08",
      "end_date": "2025-08-14",
      "city": "Everywhere",
      "state": "Online",
      "location": "Everywhere, Online",
      "image": "https://s3.amazonaws.com/assets.mlh.io/events/splashes/000/213/310/thumb/IG.jpg?1746705445"
    },
    {
      "url": "https://hackpue.com/",
      "title": "HackPue",
      "name": "HackPue",
      "dates": "Aug 16th - 17th",
      "start_date": "2025-08-16",
      "end_date": "2025-08-17",
      "city": "Puebla",
      "state": "Mexico",
      "location": "Puebla, Mexico",
      "image": "https://s3.amazonaws.com/assets.mlh.io/events/splashes/000/213/405/thumb/hack_logo_bgrm2_%281%29.png?1752587163"
    },
    {
      "url": "https://hackathon.iiitkalyani.ac.in/",
      "title": "Status Code 2",
      "name": "Status Code 2",
      "dates": "Aug 23rd - 24th",
      "start_date": "2025-08-23",
      "end_date": "2025-08-24",
      "city": "Mohanpur",
      "state": "West Bengal",
      "location": "Mohanpur, West Bengal",
      "image": "https://s3.amazonaws.com/assets.mlh.io/events/splashes/000/213/384/thumb/event_backsplash.png?1751468859"
    },
    {
      "url": "https://events.mlh.io/events/12770",
      "title": "Roo Code Hackathon",
      "name": "Roo Code Hackathon",
      "dates": "Aug 29th - 31st",
      "start_date": "2025-08-29",
      "end_date": "2025-08-31",
      "city": "Everywhere",
      "state": "Worldwide",
      "location": "Everywhere, Worldwide",
      "image": "https://s3.amazonaws.com/assets.mlh.io/events/splashes/000/213/415/thumb/Hero.png?1755798792"
    },
    {
      "url": "https://dsudevhack2.tech/",
      "title": "DSU DevHack 2.0",
      "name": "DSU DevHack 2.0",
      "dates": "Sep 12th - 13th",
      "start_date": "2025-09-12",
      "end_date": "2025-09-13",
      "city": "Bengaluru",
      "state": "Karnataka",
      "location": "Bengaluru, Karnataka",
      "image": "https://s3.amazonaws.com/assets.mlh.io/events/splashes/000/213/406/thumb/dsu_backsplash.png?1753714768"
    },
    {
      "url": "https://events.mlh.io/events/12665",
      "title": "Global Hack Week: Data",
      "name": "Global Hack Week: Data",
      "dates": "Sep 12th - 18th",
      "start_date": "2025-09-12",
      "end_date": "2025-09-18",
      "city": "Everywhere",
      "state": "Online",
      "location": "Everywhere, Online",
      "image": "https://s3.amazonaws.com/assets.mlh.io/events/splashes/000/213/404/thumb/hero.jpg?1752220153"
    },
    {
      "url": "https://hackthenorth.com/",
      "title": "Hack the North",
      "name": "Hack the North",
      "dates": "Sep 12th - 14th",
      "start_date": "2025-09-12",
      "end_date": "2025-09-14",
      "city": "Waterloo",
      "state": "Canada",
      "location": "Waterloo, Canada",
      "image": "https://s3.amazonaws.com/assets.mlh.io/events/splashes/000/213/390/thumb/MLHassetcover.jpg?1751549200"
    },
    {
      "url": "https://hophacks.com/",
      "title": "HopHacks",
      "name": "HopHacks",
      "dates": "Sep 12th - 14th",
      "start_date": "2025-09-12",
      "end_date": "2025-09-14",
      "city": "Baltimore",
      "state": "Maryland",
      "location": "Baltimore, Maryland",
      "image": "https://s3.amazonaws.com/assets.mlh.io/events/splashes/000/213/358/thumb/HH_2025_square_logo.png?1750447019"
    },
    {
      "url": "https://hackwestx.com/2025",
      "title": "HackWesTX",
      "name": "HackWesTX",
      "dates": "Sep 13th - 14th",
      "start_date": "2025-09-13",
      "end_date": "2025-09-14",
      "city": "Lubbock",
      "state": "Texas",
      "location": "Lubbock, Texas",
      "image": "https://s3.amazonaws.com/assets.mlh.io/events/splashes/000/213/407/thumb/hackwestx-backsplashj.jpg?1753296534"
    },
    {
      "url": "https://codecrunchglobal.vercel.app/HACK-5-305-HACK-FALL2025.html",
      "title": "305 Hackathon",
      "name": "305 Hackathon",
      "dates": "Sep 19th - 21st",
      "start_date": "2025-09-19",
      "end_date": "2025-09-21",
      "city": "Miami",
      "state": "Florida",
      "location": "Miami, Florida",
      "image": "https://s3.amazonaws.com/assets.mlh.io/events/splashes/000/213/410/thumb/305FALL24_Backsplash_MHL_300X300.png?1753898473"
    },
    {
      "url": "https://bigredhacks.com",
      "title": "BigRed//Hacks",
      "name": "BigRed//Hacks",
      "dates": "Sep 19th - 21st",
      "start_date": "2025-09-19",
      "end_date": "2025-09-21",
      "city": "Ithaca",
      "state": "New York",
      "location": "Ithaca, New York",
      "image": "https://s3.amazonaws.com/assets.mlh.io/events/splashes/000/213/389/thumb/bigredwheel.png?1751901074"
    },
    {
      "url": "https://www.hackrice.com",
      "title": "HackRice",
      "name": "HackRice",
      "dates": "Sep 19th - 21st",
      "start_date": "2025-09-19",
      "end_date": "2025-09-21",
      "city": "Houston",
      "state": "Texas",
      "location": "Houston, Texas",
      "image": "https://s3.amazonaws.com/assets.mlh.io/events/splashes/000/213/391/thumb/300x300_logo.png?1751491072"
    },
    {
      "url": "https://pennapps.com/",
      "title": "PennApps",
      "name": "PennApps",
      "dates": "Sep 19th - 21st",
      "start_date": "2025-09-19",
      "end_date": "2025-09-21",
      "city": "Philadelphia",
      "state": "Pennsylvania",
      "location": "Philadelphia, Pennsylvania",
      "image": "https://s3.amazonaws.com/assets.mlh.io/events/splashes/000/213/414/thumb/Backdrop.png?1754489147"
    },
    {
      "url": "https://steelhacks.org/",
      "title": "SteelHacks",
      "name": "SteelHacks",
      "dates": "Sep 20th - 21st",
      "start_date": "2025-09-20",
      "end_date": "2025-09-21",
      "city": "Pittsburgh",
      "state": "Pennsylvania",
      "location": "Pittsburgh, Pennsylvania",
      "image": "https://s3.amazonaws.com/assets.mlh.io/events/splashes/000/213/368/thumb/steelhacks_backlash.jpg?1750855338"
    },
    {
      "url": "https://hack.gt/",
      "title": "HackGT",
      "name": "HackGT",
      "dates": "Sep 26th - 28th",
      "start_date": "2025-09-26",
      "end_date": "2025-09-28",
      "city": "Atlanta",
      "state": "Georgia",
      "location": "Atlanta, Georgia",
      "image": "https://s3.amazonaws.com/assets.mlh.io/events/splashes/000/213/373/thumb/hackgt12_backsplash.png?1750950030"
    },
    {
      "url": "https://events.mlh.io/events/12829",
      "title": "Midnight Hackathon",
      "name": "Midnight Hackathon",
      "dates": "Sep 26th - 28th",
      "start_date": "2025-09-26",
      "end_date": "2025-09-28",
      "city": "Everywhere",
      "state": "Worldwide",
      "location": "Everywhere, Worldwide",
      "image": "https://s3.amazonaws.com/assets.mlh.io/events/splashes/000/213/460/thumb/events_background.png?1757084410"
    },
    {
      "url": "https://shellhacks.net/",
      "title": "ShellHacks",
      "name": "ShellHacks",
      "dates": "Sep 26th - 28th",
      "start_date": "2025-09-26",
      "end_date": "2025-09-28",
      "city": "Miami",
      "state": "Florida",
      "location": "Miami, Florida",
      "image": "https://s3.amazonaws.com/assets.mlh.io/events/splashes/000/213/399/thumb/ShellHacks_-_MLH_Event_Banner.png?1751897420"
    },
    {
      "url": "https://itstechnova.org/",
      "title": "TechNova",
      "name": "TechNova",
      "dates": "Sep 26th - 28th",
      "start_date": "2025-09-26",
      "end_date": "2025-09-28",
      "city": "Waterloo",
      "state": "Canada",
      "location": "Waterloo, Canada",
      "image": "https://s3.amazonaws.com/assets.mlh.io/events/splashes/000/213/375/thumb/technovaLOGO_%281%29.png?1750968139"
    },
    {
      "url": "https://vthacks.com/",
      "title": "VTHacks",
      "name": "VTHacks",
      "dates": "Sep 26th - 28th",
      "start_date": "2025-09-26",
      "end_date": "2025-09-28",
      "city": "Blacksburg",
      "state": "Virginia",
      "location": "Blacksburg, Virginia",
      "image": "https://s3.amazonaws.com/assets.mlh.io/events/splashes/000/213/409/thumb/Screen_Shot_2025-07-30_at_11.57.56_AM.png?1753891144"
    },
    {
      "url": "https://www.njitgirlhacks.com/",
      "title": "Girl Hacks",
      "name": "Girl Hacks",
      "dates": "Sep 27th - 28th",
      "start_date": "2025-09-27",
      "end_date": "2025-09-28",
      "city": "Newark",
      "state": "New Jersey",
      "location": "Newark, New Jersey",
      "image": "https://s3.amazonaws.com/assets.mlh.io/events/splashes/000/213/411/thumb/1.png?1753898710"
    },
    {
      "url": "https://andhacks.cs.wm.edu/",
      "title": "&hacks XI",
      "name": "&hacks XI",
      "dates": "Sep 27th - 28th",
      "start_date": "2025-09-27",
      "end_date": "2025-09-28",
      "city": "Williamsburg",
      "state": "Virginia",
      "location": "Williamsburg, Virginia",
      "image": "https://s3.amazonaws.com/assets.mlh.io/events/splashes/000/213/413/thumb/Event_Backsplash_%281%29.png?1754488791"
    },
    {
      "url": "https://hackumbc.tech/",
      "title": "hackUMBC",
      "name": "hackUMBC",
      "dates": "Sep 27th - 28th",
      "start_date": "2025-09-27",
      "end_date": "2025-09-28",
      "city": "Baltimore",
      "state": "Maryland",
      "location": "Baltimore, Maryland",
      "image": "https://s3.amazonaws.com/assets.mlh.io/events/splashes/000/213/345/thumb/TEXT_LOGO_2025.png?1749761387"
    },
    {
      "url": "https://www.mhacks.org/",
      "title": "MHacks",
      "name": "MHacks",
      "dates": "Sep 27th - 28th",
      "start_date": "2025-09-27",
      "end_date": "2025-09-28",
      "city": "Ann Arbor",
      "state": "Michigan",
      "location": "Ann Arbor, Michigan",
      "image": "https://s3.amazonaws.com/assets.mlh.io/events/splashes/000/213/408/thumb/Screen_Shot_2025-07-30_at_11.42.33_AM.png?1753890279"
    },
    {
      "url": "https://www.owlhacks.com/",
      "title": "OwlHacks",
      "name": "OwlHacks",
      "dates": "Sep 27th - 28th",
      "start_date": "2025-09-27",
      "end_date": "2025-09-28",
      "city": "Philadelphia",
      "state": "Pennsylvania",
      "location": "Philadelphia, Pennsylvania",
      "image": "https://s3.amazonaws.com/assets.mlh.io/events/splashes/000/213/353/thumb/OwlHacks_2025_Backsplash.png?1750423090"
    },
    {
      "url": "https://sunhacks.io/",
      "title": "sunhacks",
      "name": "sunhacks",
      "dates": "Sep 27th - 28th",
      "start_date": "2025-09-27",
      "end_date": "2025-09-28",
      "city": "Tempe",
      "state": "Arizona",
      "location": "Tempe, Arizona",
      "image": "https://s3.amazonaws.com/assets.mlh.io/events/splashes/000/213/402/thumb/sunhacks_icon_web__1_.jpg?1751998398"
    },
    {
      "url": "https://hackharvard.io/",
      "title": "HackHarvard",
      "name": "HackHarvard",
      "dates": "Oct 3rd - 5th",
      "start_date": "2025-10-03",
      "end_date": "2025-10-05",
      "city": "Cambridge",
      "state": "Massachusetts",
      "location": "Cambridge, Massachusetts",
      "image": "https://s3.amazonaws.com/assets.mlh.io/events/splashes/000/213/453/thumb/HackHarvard-300x300.png?1757343262"
    },
    {
      "url": "https://hackthevalley.io/",
      "title": "Hack the Valley",
      "name": "Hack the Valley",
      "dates": "Oct 3rd - 5th",
      "start_date": "2025-10-03",
      "end_date": "2025-10-05",
      "city": "Scarborough",
      "state": "Ontario",
      "location": "Scarborough, Ontario",
      "image": "https://s3.amazonaws.com/assets.mlh.io/events/splashes/000/213/417/thumb/hack_the_valley_backsplash.png?1755694856"
    },
    {
      "url": "https://www.columbiadivhacks.org/",
      "title": "DivHacks",
      "name": "DivHacks",
      "dates": "Oct 4th - 5th",
      "start_date": "2025-10-04",
      "end_date": "2025-10-05",
      "city": "New York",
      "state": "New York",
      "location": "New York, New York",
      "image": "https://s3.amazonaws.com/assets.mlh.io/events/splashes/000/213/372/thumb/Screen_Shot_2025-06-26_at_10.02.35_AM.png?1750946784"
    },
    {
      "url": "https://www.hackru.org/offseason",
      "title": "HackRU",
      "name": "HackRU",
      "dates": "Oct 4th - 5th",
      "start_date": "2025-10-04",
      "end_date": "2025-10-05",
      "city": "New Brunswick",
      "state": "New Jersey",
      "location": "New Brunswick, New Jersey",
      "image": "https://s3.amazonaws.com/assets.mlh.io/events/splashes/000/213/347/thumb/HackRU_MLH_Backsplash.png?1750090216"
    },
    {
      "url": "https://www.hackuta.org/",
      "title": "HackUTA",
      "name": "HackUTA",
      "dates": "Oct 4th - 5th",
      "start_date": "2025-10-04",
      "end_date": "2025-10-05",
      "city": "Arlington",
      "state": "Texas",
      "location": "Arlington, Texas",
      "image": "https://s3.amazonaws.com/assets.mlh.io/events/splashes/000/213/398/thumb/HUTA25-300x300.png?1751897115"
    },
    {
      "url": "https://www.spaceappschallenge.org",
      "title": "NASA Space Apps Challenge: MTY",
      "name": "NASA Space Apps Challenge: MTY",
      "dates": "Oct 4th - 5th",
      "start_date": "2025-10-04",
      "end_date": "2025-10-05",
      "city": "Monterrey",
      "state": "Nuevo León",
      "location": "Monterrey, Nuevo León",
      "image": "https://s3.amazonaws.com/assets.mlh.io/events/splashes/000/213/458/thumb/Screen_Shot_2025-08-29_at_3.27.25_PM.png?1756495697"
    },
    {
      "url": "https://stormhacks.com/",
      "title": "Stormhacks",
      "name": "Stormhacks",
      "dates": "Oct 4th - 5th",
      "start_date": "2025-10-04",
      "end_date": "2025-10-05",
      "city": "Burnaby",
      "state": "Canada",
      "location": "Burnaby, Canada",
      "image": "https://s3.amazonaws.com/assets.mlh.io/events/splashes/000/213/465/thumb/bigSquare.png?1757099762"
    },
    {
      "url": "https://events.mlh.io/events/12714",
      "title": "Global Hack Week: Open Source",
      "name": "Global Hack Week: Open Source",
      "dates": "Oct 10th - 16th",
      "start_date": "2025-10-10",
      "end_date": "2025-10-16",
      "city": "Everywhere",
      "state": "Online",
      "location": "Everywhere, Online",
      "image": "https://s3.amazonaws.com/assets.mlh.io/events/splashes/000/213/403/thumb/hero.jpg?1752219133"
    },
    {
      "url": "https://hacknc.com/",
      "title": "HackNC",
      "name": "HackNC",
      "dates": "Oct 10th - 12th",
      "start_date": "2025-10-10",
      "end_date": "2025-10-12",
      "city": "Chapel Hill",
      "state": "North Carolina",
      "location": "Chapel Hill, North Carolina",
      "image": "https://s3.amazonaws.com/assets.mlh.io/events/splashes/000/213/459/thumb/Screen_Shot_2025-09-19_at_3.58.59_PM.png?1758311959"
    },
    {
      "url": "https://bostonhacks.org",
      "title": "BostonHacks",
      "name": "BostonHacks",
      "dates": "Oct 11th - 12th",
      "start_date": "2025-10-11",
      "end_date": "2025-10-12",
      "city": "Boston",
      "state": "MA",
      "location": "Boston, MA",
      "image": "https://s3.amazonaws.com/assets.mlh.io/events/splashes/000/213/464/thumb/bg_of_mlh_post.jpg?1757099667"
    },
    {
      "url": "https://www.hackdearborn.org/",
      "title": "Hack Dearborn",
      "name": "Hack Dearborn",
      "dates": "Oct 11th - 12th",
      "start_date": "2025-10-11",
      "end_date": "2025-10-12",
      "city": "Dearborn",
      "state": "Michigan",
      "location": "Dearborn, Michigan",
      "image": "https://s3.amazonaws.com/assets.mlh.io/events/splashes/000/213/349/thumb/hd4_backsplash__1_.png?1750255460"
    },
    {
      "url": "https://hackkstate.tech/",
      "title": "Hack Cats",
      "name": "Hack Cats",
      "dates": "Oct 17th - 19th",
      "start_date": "2025-10-17",
      "end_date": "2025-10-19",
      "city": "Manhattan",
      "state": "Kansas",
      "location": "Manhattan, Kansas",
      "image": "https://s3.amazonaws.com/assets.mlh.io/events/splashes/000/213/456/thumb/hacklogo_%281%29.png?1756829792"
    },
    {
      "url": "https://hackknight.org/",
      "title": "Hack Knight",
      "name": "Hack Knight",
      "dates": "Oct 17th - 19th",
      "start_date": "2025-10-17",
      "end_date": "2025-10-19",
      "city": "New York",
      "state": "New York",
      "location": "New York, New York",
      "image": "https://s3.amazonaws.com/assets.mlh.io/events/splashes/000/213/452/thumb/HackKnight_Logo.png?1756480932"
    },
    {
      "url": "https://lu.ma/AustinRoadshow",
      "title": "MLH AI Roadshow: Austin",
      "name": "MLH AI Roadshow: Austin",
      "dates": "Oct 17th",
      "start_date": "2025-10-17",
      "end_date": "2025-10-17",
      "city": "Austin",
      "state": "Texas",
      "location": "Austin, Texas",
      "image": "https://s3.amazonaws.com/assets.mlh.io/events/splashes/000/213/475/thumb/Screenshot_2025-09-03_at_11.52.11%E2%80%AFAM.png?1757608656"
    },
    {
      "url": "https://events.mlh.io/events/12808",
      "title": "Open Source Hackfest",
      "name": "Open Source Hackfest",
      "dates": "Oct 17th - 19th",
      "start_date": "2025-10-17",
      "end_date": "2025-10-19",
      "city": "Everywhere",
      "state": "Worldwide",
      "location": "Everywhere, Worldwide",
      "image": "https://s3.amazonaws.com/assets.mlh.io/events/splashes/000/213/305/thumb/devpost-thumbnail.jpg?1744304330"
    },
    {
      "url": "https://astra2025.pages.dev/",
      "title": "CodeRED: Astra",
      "name": "CodeRED: Astra",
      "dates": "Oct 18th - 19th",
      "start_date": "2025-10-18",
      "end_date": "2025-10-19",
      "city": "Houston",
      "state": "Texas",
      "location": "Houston, Texas",
      "image": "https://s3.amazonaws.com/assets.mlh.io/events/splashes/000/213/371/thumb/CodeRED_logobacksplash-01.png?1750884354"
    },
    {
      "url": "https://dh25.dubhacks.co/",
      "title": "DubHacks",
      "name": "DubHacks",
      "dates": "Oct 18th - 19th",
      "start_date": "2025-10-18",
      "end_date": "2025-10-19",
      "city": "Seattle",
      "state": "Washington",
      "location": "Seattle, Washington",
      "image": "https://s3.amazonaws.com/assets.mlh.io/events/splashes/000/213/376/thumb/MLH_Backsplash_from_DH_25_Prototype.png?1750969720"
    },
    {
      "url": "https://hacktx.com/",
      "title": "HackTX 25",
      "name": "HackTX 25",
      "dates": "Oct 18th - 19th",
      "start_date": "2025-10-18",
      "end_date": "2025-10-19",
      "city": "Austin",
      "state": "Texas",
      "location": "Austin, Texas",
      "image": "https://s3.amazonaws.com/assets.mlh.io/events/splashes/000/213/386/thumb/FreetailBat_%281%29.png?1751488427"
    },
    {
      "url": "https://hackberkeley.org/",
      "title": "Cal Hacks",
      "name": "Cal Hacks",
      "dates": "Oct 24th - 26th",
      "start_date": "2025-10-24",
      "end_date": "2025-10-26",
      "city": "Berkeley",
      "state": "California",
      "location": "Berkeley, California",
      "image": "https://s3.amazonaws.com/assets.mlh.io/events/splashes/000/213/397/thumb/1500623874417_calhacksbackground.png?1751896074"
    },
    {
      "url": "http://www.hackmty.com",
      "title": "HackMTY",
      "name": "HackMTY",
      "dates": "Oct 24th - 26th",
      "start_date": "2025-10-24",
      "end_date": "2025-10-26",
      "city": "Monterrey",
      "state": "Nuevo León",
      "location": "Monterrey, Nuevo León",
      "image": "https://s3.amazonaws.com/assets.mlh.io/events/splashes/000/213/457/thumb/HackMTY_Banner.png?1756489651"
    },
    {
      "url": "https://2025.knighthacks.org",
      "title": "Knight Hacks VIII",
      "name": "Knight Hacks VIII",
      "dates": "Oct 24th - 26th",
      "start_date": "2025-10-24",
      "end_date": "2025-10-26",
      "city": "Orlando",
      "state": "Florida",
      "location": "Orlando, Florida",
      "image": "https://s3.amazonaws.com/assets.mlh.io/events/splashes/000/213/394/thumb/BackgroundMLH2026.png?1758550280"
    },
    {
      "url": "https://emberhacks.ca/",
      "title": "EmberHacks",
      "name": "EmberHacks",
      "dates": "Oct 25th - 26th",
      "start_date": "2025-10-25",
      "end_date": "2025-10-26",
      "city": "Mississauga",
      "state": "Canada",
      "location": "Mississauga, Canada",
      "image": "https://s3.amazonaws.com/assets.mlh.io/events/splashes/000/213/463/thumb/EmberHacks_Background_Image.png?1759343895"
    },
    {
      "url": "https://www.girlshoohack.com/",
      "title": "Girls Hoo Hack",
      "name": "Girls Hoo Hack",
      "dates": "Oct 25th - 26th",
      "start_date": "2025-10-25",
      "end_date": "2025-10-26",
      "city": "Charlottesville",
      "state": "Virginia",
      "location": "Charlottesville, Virginia",
      "image": "https://s3.amazonaws.com/assets.mlh.io/events/splashes/000/213/455/thumb/GHH_2025_Devpost_Background.png?1756486623"
    },
    {
      "url": "https://hackpsu.org/",
      "title": "HackPSU",
      "name": "HackPSU",
      "dates": "Oct 25th - 26th",
      "start_date": "2025-10-25",
      "end_date": "2025-10-26",
      "city": "State College",
      "state": "Pennsylvania",
      "location": "State College, Pennsylvania",
      "image": "https://s3.amazonaws.com/assets.mlh.io/events/splashes/000/213/366/thumb/Official_HackPSU_Logo.png?1750786242"
    },
    {
      "url": "https://newhacks.ca/",
      "title": "NewHacks",
      "name": "NewHacks",
      "dates": "Oct 25th - 26th",
      "start_date": "2025-10-25",
      "end_date": "2025-10-26",
      "city": "Toronto",
      "state": "Ontario",
      "location": "Toronto, Ontario",
      "image": "https://s3.amazonaws.com/assets.mlh.io/events/splashes/000/213/378/thumb/Screen_Shot_2025-06-27_at_9.58.37_AM.png?1751032751"
    },
    {
      "url": "https://rowdyhacks.org/",
      "title": "RowdyHacks",
      "name": "RowdyHacks",
      "dates": "Oct 25th - 26th",
      "start_date": "2025-10-25",
      "end_date": "2025-10-26",
      "city": "San Antonio",
      "state": "Texas",
      "location": "San Antonio, Texas",
      "image": "https://s3.amazonaws.com/assets.mlh.io/events/splashes/000/213/352/thumb/Screen_Shot_2025-06-20_at_11.41.38_AM.png?1750434141"
    },
    {
      "url": "https://durhack.com/",
      "title": "DurHack",
      "name": "DurHack",
      "dates": "Nov 1st - 2nd",
      "start_date": "2025-11-01",
      "end_date": "2025-11-02",
      "city": "Durham",
      "state": "County Durham",
      "location": "Durham, County Durham",
      "image": "https://s3.amazonaws.com/assets.mlh.io/events/splashes/000/213/362/thumb/backdrop-durhack_1.png?1760097535"
    },
    {
      "url": "https://hack-coms-25.devpost.com/?_gl=1*1f2x1sf*_gcl_au*NDkwNTUwNDguMTc1MTk4Njg4OQ..*_ga*MjEwNzA3MzAzLjE3NDIyMjUwMDg.*_ga_0YHJK3Y10M*czE3NTE5OTczOTEkbzIzJGcxJHQxNzUxOTk3NDAxJGo1MCRsMCRoMA..",
      "title": "HACK.COMS",
      "name": "HACK.COMS",
      "dates": "Nov 1st - 2nd",
      "start_date": "2025-11-01",
      "end_date": "2025-11-02",
      "city": "Rochester",
      "state": "New York",
      "location": "Rochester, New York",
      "image": "https://s3.amazonaws.com/assets.mlh.io/events/splashes/000/213/454/thumb/1.png?1757357737"
    },
    {
      "url": "https://www.hackokstate.com/",
      "title": "Hack OKState",
      "name": "Hack OKState",
      "dates": "Nov 1st - 2nd",
      "start_date": "2025-11-01",
      "end_date": "2025-11-02",
      "city": "Stillwater",
      "state": "Oklahoma",
      "location": "Stillwater, Oklahoma",
      "image": "https://s3.amazonaws.com/assets.mlh.io/events/splashes/000/213/483/thumb/hackokstate-300-300-background.png?1760043408"
    },
    {
      "url": "https://www.hackphs.tech",
      "title": "hackPHS",
      "name": "hackPHS",
      "dates": "Nov 1st - 2nd",
      "start_date": "2025-11-01",
      "end_date": "2025-11-02",
      "city": "Princeton",
      "state": "NJ",
      "location": "Princeton, NJ",
      "image": "https://s3.amazonaws.com/assets.mlh.io/events/splashes/000/213/478/thumb/background-updated.png?1758311206"
    },
    {
      "url": "https://itiz-hackaton.com.mx/",
      "title": "Hackathon ITIZ",
      "name": "Hackathon ITIZ",
      "dates": "Nov 6th - 8th",
      "start_date": "2025-11-06",
      "end_date": "2025-11-08",
      "city": "Iztapalapa",
      "state": "Mexico",
      "location": "Iztapalapa, Mexico",
      "image": "https://s3.amazonaws.com/assets.mlh.io/events/splashes/000/213/495/thumb/EventBackground.png?1761770408"
    },
    {
      "url": "https://www.aiatl.io/",
      "title": "AI ATL",
      "name": "AI ATL",
      "dates": "Nov 7th - 9th",
      "start_date": "2025-11-07",
      "end_date": "2025-11-09",
      "city": "Atlanta",
      "state": "Georgia",
      "location": "Atlanta, Georgia",
      "image": "https://s3.amazonaws.com/assets.mlh.io/events/splashes/000/213/486/thumb/300x300.png?1760630345"
    },
    {
      "url": "https://events.mlh.io/events/12815",
      "title": "Global Hack Week: API Week",
      "name": "Global Hack Week: API Week",
      "dates": "Nov 7th - 13th",
      "start_date": "2025-11-07",
      "end_date": "2025-11-13",
      "city": "Everywhere",
      "state": "Online",
      "location": "Everywhere, Online",
      "image": "https://s3.amazonaws.com/assets.mlh.io/events/splashes/000/213/416/thumb/IG.jpg?1755166762"
    },
    {
      "url": "https://www.hackprinceton.com/",
      "title": "HackPrinceton",
      "name": "HackPrinceton",
      "dates": "Nov 7th - 9th",
      "start_date": "2025-11-07",
      "end_date": "2025-11-09",
      "city": "Princeton",
      "state": "New Jersey",
      "location": "Princeton, New Jersey",
      "image": "https://s3.amazonaws.com/assets.mlh.io/events/splashes/000/213/476/thumb/Screen_Shot_2025-09-15_at_11.34.41_AM.png?1757950651"
    },
    {
      "url": "https://hack.sbcs.io",
      "title": "SBUHacks",
      "name": "SBUHacks",
      "dates": "Nov 7th - 9th",
      "start_date": "2025-11-07",
      "end_date": "2025-11-09",
      "city": "Stony Brook",
      "state": "New York",
      "location": "Stony Brook, New York",
      "image": "https://s3.amazonaws.com/assets.mlh.io/events/splashes/000/213/482/thumb/SBCS_Hackathon_Background_20250729023646-2.png?1759350849"
    },
    {
      "url": "https://shark-byte.io/",
      "title": "SharkByte",
      "name": "SharkByte",
      "dates": "Nov 7th - 9th",
      "start_date": "2025-11-07",
      "end_date": "2025-11-09",
      "city": "Miami",
      "state": "Florida",
      "location": "Miami, Florida",
      "image": "https://s3.amazonaws.com/assets.mlh.io/events/splashes/000/213/477/thumb/SharkByte_banner.png?1758136818"
    },
    {
      "url": "https://tigerhacks.missouri.edu/",
      "title": "TigerHacks",
      "name": "TigerHacks",
      "dates": "Nov 7th - 9th",
      "start_date": "2025-11-07",
      "end_date": "2025-11-09",
      "city": "Columbia",
      "state": "Missouri",
      "location": "Columbia, Missouri",
      "image": "https://s3.amazonaws.com/assets.mlh.io/events/splashes/000/213/468/thumb/image_1_.png?1757521869"
    },
    {
      "url": "https://ycphacks.io/",
      "title": "YCP Hacks",
      "name": "YCP Hacks",
      "dates": "Nov 7th - 9th",
      "start_date": "2025-11-07",
      "end_date": "2025-11-09",
      "city": "York",
      "state": "Pennsylvania",
      "location": "York, Pennsylvania",
      "image": "https://s3.amazonaws.com/assets.mlh.io/events/splashes/000/213/473/thumb/Watching_the_Drone_1.jpg?1757596997"
    },
    {
      "url": "https://greatunihack.com/",
      "title": "GreatUniHack",
      "name": "GreatUniHack",
      "dates": "Nov 8th - 9th",
      "start_date": "2025-11-08",
      "end_date": "2025-11-09",
      "city": "Manchester",
      "state": "England",
      "location": "Manchester, England",
      "image": "https://s3.amazonaws.com/assets.mlh.io/events/splashes/000/213/489/thumb/greatunihack.jpg?1761146327"
    },
    {
      "url": "https://hackcbs.tech/",
      "title": "hackCBS 8.0",
      "name": "hackCBS 8.0",
      "dates": "Nov 8th - 9th",
      "start_date": "2025-11-08",
      "end_date": "2025-11-09",
      "city": "New Delhi",
      "state": "New Delhi",
      "location": "New Delhi, New Delhi",
      "image": "https://s3.amazonaws.com/assets.mlh.io/events/splashes/000/213/361/thumb/hackCBS8.0_logo_coloured.png?1750710329"
    },
    {
      "url": "https://hacktrent.ca/",
      "title": "Hack Trent",
      "name": "Hack Trent",
      "dates": "Nov 8th - 9th",
      "start_date": "2025-11-08",
      "end_date": "2025-11-09",
      "city": "Peterborough",
      "state": "ON",
      "location": "Peterborough, ON",
      "image": "https://s3.amazonaws.com/assets.mlh.io/events/splashes/000/213/490/thumb/mlh_-_HackTrent_2025_-_Backsplash.png?1761161832"
    },
    {
      "url": "https://hackutd-25-site.vercel.app/",
      "title": "HackUTD",
      "name": "HackUTD",
      "dates": "Nov 8th - 9th",
      "start_date": "2025-11-08",
      "end_date": "2025-11-09",
      "city": "Richardson",
      "state": "Texas",
      "location": "Richardson, Texas",
      "image": "https://s3.amazonaws.com/assets.mlh.io/events/splashes/000/213/392/thumb/Frame_10.png?1751549186"
    },
    {
      "url": "https://www.makecu.dev/",
      "title": "MakeCU",
      "name": "MakeCU",
      "dates": "Nov 8th - 9th",
      "start_date": "2025-11-08",
      "end_date": "2025-11-09",
      "city": "New York",
      "state": "New York",
      "location": "New York, New York",
      "image": "https://s3.amazonaws.com/assets.mlh.io/events/splashes/000/213/469/thumb/MakeCU_Event_Splash_300_x_300.png?1759410820"
    },
    {
      "url": "https://makeuc.io/",
      "title": "MakeUC",
      "name": "MakeUC",
      "dates": "Nov 8th - 9th",
      "start_date": "2025-11-08",
      "end_date": "2025-11-09",
      "city": "Cincinnati",
      "state": "Ohio",
      "location": "Cincinnati, Ohio",
      "image": "https://s3.amazonaws.com/assets.mlh.io/events/splashes/000/213/470/thumb/MakeUC_300x300_v2.png?1757522396"
    },
    {
      "url": "https://tamudatathon.com/",
      "title": "TAMU Datathon",
      "name": "TAMU Datathon",
      "dates": "Nov 8th - 9th",
      "start_date": "2025-11-08",
      "end_date": "2025-11-09",
      "city": "College Station",
      "state": "Texas",
      "location": "College Station, Texas",
      "image": "https://s3.amazonaws.com/assets.mlh.io/events/splashes/000/213/479/thumb/td25eventsplash.jpg?1758556433"
    },
    {
      "url": "https://ubhacking.cse.buffalo.edu/",
      "title": "UB Hacking",
      "name": "UB Hacking",
      "dates": "Nov 8th - 9th",
      "start_date": "2025-11-08",
      "end_date": "2025-11-09",
      "city": "Buffalo",
      "state": "New York",
      "location": "Buffalo, New York",
      "image": "https://s3.amazonaws.com/assets.mlh.io/events/splashes/000/213/481/thumb/UB_Hacking_Event_Backsplash.png?1759410871"
    },
    {
      "url": "https://dandyhacks.net/",
      "title": "DandyHacks",
      "name": "DandyHacks",
      "dates": "Nov 14th - 16th",
      "start_date": "2025-11-14",
      "end_date": "2025-11-16",
      "city": "Rochester",
      "state": "New York",
      "location": "Rochester, New York",
      "image": "https://s3.amazonaws.com/assets.mlh.io/events/splashes/000/213/357/thumb/Screen_Shot_2025-06-20_at_3.04.53_PM.png?1750446350"
    },
    {
      "url": "https://emoryhacks.com/",
      "title": "Emory Hacks",
      "name": "Emory Hacks",
      "dates": "Nov 14th - 16th",
      "start_date": "2025-11-14",
      "end_date": "2025-11-16",
      "city": "Atlanta",
      "state": "Georgia",
      "location": "Atlanta, Georgia",
      "image": "https://s3.amazonaws.com/assets.mlh.io/events/splashes/000/213/467/thumb/Emory_Hacks_300x300_Backsplash.png?1757521005"
    },
    {
      "url": "https://eu.junctionplatform.com/events/junction-2025",
      "title": "Junction 2025: Utopia & Dystopia",
      "name": "Junction 2025: Utopia & Dystopia",
      "dates": "Nov 14th - 16th",
      "start_date": "2025-11-14",
      "end_date": "2025-11-16",
      "city": "Espoo",
      "state": "Finland",
      "location": "Espoo, Finland",
      "image": "https://s3.amazonaws.com/assets.mlh.io/events/splashes/000/213/488/thumb/junction_emblem_logo_-_white_black_background_%281%29.png?1761146142"
    },
    {
      "url": "https://unihack.eu/",
      "title": "UniHack ",
      "name": "UniHack",
      "dates": "Nov 14th - 16th",
      "start_date": "2025-11-14",
      "end_date": "2025-11-16",
      "city": "Timisoara",
      "state": "Timis",
      "location": "Timisoara, Timis",
      "image": "https://s3.amazonaws.com/assets.mlh.io/events/splashes/000/213/493/thumb/UniHack_BackSplash_LOGO.png?1761582076"
    },
    {
      "url": "https://hacknyu.org/",
      "title": "HackNYU",
      "name": "HackNYU",
      "dates": "Nov 15th - 16th",
      "start_date": "2025-11-15",
      "end_date": "2025-11-16",
      "city": "New York",
      "state": "NY",
      "location": "New York, NY",
      "image": "https://s3.amazonaws.com/assets.mlh.io/events/splashes/000/213/487/thumb/backsplash_%286%29.png?1760639830"
    },
    {
      "url": "https://hackrpi.com/",
      "title": "HackRPI",
      "name": "HackRPI",
      "dates": "Nov 15th - 16th",
      "start_date": "2025-11-15",
      "end_date": "2025-11-16",
      "city": "Troy",
      "state": "New York",
      "location": "Troy, New York",
      "image": "https://s3.amazonaws.com/assets.mlh.io/events/splashes/000/213/350/thumb/MLH_Background_%281%29.png?1750257769"
    },
    {
      "url": "https://quackhacks.org/",
      "title": "QuackHacks",
      "name": "QuackHacks",
      "dates": "Nov 15th - 16th",
      "start_date": "2025-11-15",
      "end_date": "2025-11-16",
      "city": "Eugene",
      "state": "Oregon",
      "location": "Eugene, Oregon",
      "image": "https://s3.amazonaws.com/assets.mlh.io/events/splashes/000/213/492/thumb/QH2backsplash.png?1761242254"
    },
    {
      "url": "https://gotechnica.org/",
      "title": "Technica",
      "name": "Technica",
      "dates": "Nov 15th - 16th",
      "start_date": "2025-11-15",
      "end_date": "2025-11-16",
      "city": "College Park",
      "state": "Maryland",
      "location": "College Park, Maryland",
      "image": "https://s3.amazonaws.com/assets.mlh.io/events/splashes/000/213/387/thumb/logo__5_.png?1751488658"
    }
  ]
}